nazwa,lat,lng
Park Szczytnicki,51.1095,17.0805
Ogród Japoński,51.1073,17.0797
Ogród Botaniczny,51.1146,17.0484
Park Tołpy,51.1222,17.0467
Park Grabiszyński,51.0947,16.9925
Park Południowy,51.0887,17.0173
Park Staszica,51.1207,17.0335
Park Brochowski,51.0675,17.0627
Park Zachodni,51.1275,16.9901
Wyspa Słodowa (teren zielony),51.1128,17.0340